{
  "authenticationResultCode": "ValidCredentials",
  "brandLogoUri": "http://dev.virtualearth.net/Branding/logo_powered_by.png",
  "copyright": "Copyright Â© 2022 Microsoft and its suppliers. All rights reserved. This API cannot be accessed and the content and any results may not be used, reproduced or transmitted in any manner without express written permission from Microsoft Corporation.",
  "resourceSets": [
    {
      "estimatedTotal": 10,
      "resources": [
        {
          "__type": "SearchResult:http://schemas.microsoft.com/search/local/ws/rest/v1",
          "name": "Angilo's Pizza",
          "point": {
            "type": "Point",
            "coordinates": [39.175724029541016, -84.22700500488281]
          },
          "Address": {
            "addressLine": "1247 State Route 131",
            "adminDistrict": "OH",
            "countryRegion": "US",
            "formattedAddress": "1247 State Route 131, Milford, OH, 45150",
            "locality": "Milford",
            "postalCode": "45150"
          },
          "PhoneNumber": "(513) 831-3433",
          "Website": "http://www.angilospizza.com/",
          "entityType": "Restaurant",
          "geocodePoints": [
            {
              "type": "Point",
              "coordinates": [39.175724029541016, -84.22700500488281],
              "calculationMethod": "Rooftop",
              "usageTypes": ["Display"]
            }
          ]
        },
        {
          "__type": "SearchResult:http://schemas.microsoft.com/search/local/ws/rest/v1",
          "name": "Gramma's Pizza",
          "point": {
            "type": "Point",
            "coordinates": [39.20195007324219, -84.22332000732422]
          },
          "Address": {
            "addressLine": "1240 State Route 28",
            "adminDistrict": "OH",
            "countryRegion": "US",
            "formattedAddress": "1240 State Route 28, Milford, OH, 45150",
            "locality": "Milford",
            "postalCode": "45150"
          },
          "PhoneNumber": "(513) 722-4470",
          "Website": "http://grammaspizza.net/",
          "entityType": "Restaurant",
          "geocodePoints": [
            {
              "type": "Point",
              "coordinates": [39.20195007324219, -84.22332000732422],
              "calculationMethod": "Rooftop",
              "usageTypes": ["Display"]
            }
          ]
        },
        {
          "__type": "SearchResult:http://schemas.microsoft.com/search/local/ws/rest/v1",
          "name": "Domino's Pizza",
          "point": {
            "type": "Point",
            "coordinates": [39.17549133300781, -84.23743438720703]
          },
          "Address": {
            "addressLine": "1126 State Route 131",
            "adminDistrict": "OH",
            "countryRegion": "US",
            "formattedAddress": "1126 State Route 131, Milford, OH, 45150",
            "locality": "Milford",
            "postalCode": "45150"
          },
          "PhoneNumber": "(513) 831-1234",
          "Website": "https://www.dominos.com/en/?redirect=homepage&utm_source=locallistings&utm_medium=loclist&utm_campaign=localmaps",
          "entityType": "Restaurant",
          "geocodePoints": [
            {
              "type": "Point",
              "coordinates": [39.17549133300781, -84.23743438720703],
              "calculationMethod": "Rooftop",
              "usageTypes": ["Display"]
            }
          ]
        },
        {
          "__type": "SearchResult:http://schemas.microsoft.com/search/local/ws/rest/v1",
          "name": "Jet's Pizza",
          "point": {
            "type": "Point",
            "coordinates": [39.1945686340332, -84.23936462402344]
          },
          "Address": {
            "addressLine": "5976 Meijer Dr",
            "adminDistrict": "OH",
            "countryRegion": "US",
            "formattedAddress": "5976 Meijer Dr, Milford, OH, 45150",
            "locality": "Milford",
            "postalCode": "45150"
          },
          "PhoneNumber": "(513) 248-0918",
          "Website": "https://www.jetspizza.com/stores/ohio/milford/5976-meijer-dr/",
          "entityType": "Restaurant",
          "geocodePoints": [
            {
              "type": "Point",
              "coordinates": [39.1945686340332, -84.23936462402344],
              "calculationMethod": "Rooftop",
              "usageTypes": ["Display"]
            }
          ]
        },
        {
          "__type": "SearchResult:http://schemas.microsoft.com/search/local/ws/rest/v1",
          "name": "Donatos Pizza",
          "point": {
            "type": "Point",
            "coordinates": [39.19477081298828, -84.23575592041016]
          },
          "Address": {
            "addressLine": "1097 State Rte. 28 Bypass",
            "adminDistrict": "OH",
            "countryRegion": "US",
            "formattedAddress": "1097 State Rte. 28 Bypass, Milford, OH, 45150",
            "locality": "Milford",
            "postalCode": "45150"
          },
          "PhoneNumber": "(513) 248-7777",
          "Website": "https://www.donatos.com/menu?location=109",
          "entityType": "Restaurant",
          "geocodePoints": [
            {
              "type": "Point",
              "coordinates": [39.19477081298828, -84.23575592041016],
              "calculationMethod": "Rooftop",
              "usageTypes": ["Display"]
            }
          ]
        },
        {
          "__type": "SearchResult:http://schemas.microsoft.com/search/local/ws/rest/v1",
          "name": "Marco's Pizza",
          "point": {
            "type": "Point",
            "coordinates": [39.19483184814453, -84.2382583618164]
          },
          "Address": {
            "addressLine": "1064 State Route 28",
            "adminDistrict": "OH",
            "countryRegion": "US",
            "formattedAddress": "1064 State Route 28, Milford, OH, 45150",
            "locality": "Milford",
            "postalCode": "45150"
          },
          "PhoneNumber": "(513) 831-6100",
          "Website": "http://www.marcos.com/locations/oh/milford/state-route-28?s=true",
          "entityType": "Restaurant",
          "geocodePoints": [
            {
              "type": "Point",
              "coordinates": [39.19483184814453, -84.2382583618164],
              "calculationMethod": "Rooftop",
              "usageTypes": ["Display"]
            }
          ]
        },
        {
          "__type": "SearchResult:http://schemas.microsoft.com/search/local/ws/rest/v1",
          "name": "LaRosa's Pizza Goshen",
          "point": {
            "type": "Point",
            "coordinates": [39.21090316772461, -84.20694732666016]
          },
          "Address": {
            "addressLine": "1397 St. Rt. 28",
            "adminDistrict": "OH",
            "countryRegion": "US",
            "formattedAddress": "1397 St. Rt. 28, Loveland, OH, 45140",
            "locality": "Loveland",
            "postalCode": "45140"
          },
          "PhoneNumber": "(513) 347-1111",
          "Website": "https://www.larosas.com/locations/goshen",
          "entityType": "Restaurant",
          "geocodePoints": [
            {
              "type": "Point",
              "coordinates": [39.21090316772461, -84.20694732666016],
              "calculationMethod": "Rooftop",
              "usageTypes": ["Display"]
            }
          ]
        },
        {
          "__type": "SearchResult:http://schemas.microsoft.com/search/local/ws/rest/v1",
          "name": "Papa John's Pizza",
          "point": {
            "type": "Point",
            "coordinates": [39.191566467285156, -84.2531967163086]
          },
          "Address": {
            "addressLine": "922 State Route 28, Ste B",
            "adminDistrict": "OH",
            "countryRegion": "US",
            "formattedAddress": "922 State Route 28, Ste B, Milford, OH, 45150",
            "locality": "Milford",
            "postalCode": "45150"
          },
          "PhoneNumber": "(513) 248-4828",
          "Website": "https://locations.papajohns.com/united-states/oh/45150/milford/922-state-route-28?utm_source=yext-listings&utm_medium=referral&y_source=1_MTA2OTE5ODUtNDgzLWxvY2F0aW9uLndlYnNpdGU%3D",
          "entityType": "Restaurant",
          "geocodePoints": [
            {
              "type": "Point",
              "coordinates": [39.191566467285156, -84.2531967163086],
              "calculationMethod": "Rooftop",
              "usageTypes": ["Display"]
            }
          ]
        },
        {
          "__type": "SearchResult:http://schemas.microsoft.com/search/local/ws/rest/v1",
          "name": "Pizza Hut",
          "point": {
            "type": "Point",
            "coordinates": [39.17745590209961, -84.28129577636719]
          },
          "Address": {
            "addressLine": "790 N Main Street",
            "adminDistrict": "OH",
            "countryRegion": "US",
            "formattedAddress": "790 N Main Street, Milford, OH, 45150",
            "locality": "Milford",
            "postalCode": "45150"
          },
          "PhoneNumber": "(513) 248-0569",
          "Website": "http://www.pizzahut.com/",
          "entityType": "Restaurant",
          "geocodePoints": [
            {
              "type": "Point",
              "coordinates": [39.17745590209961, -84.28129577636719],
              "calculationMethod": "Rooftop",
              "usageTypes": ["Display"]
            }
          ]
        },
        {
          "__type": "SearchResult:http://schemas.microsoft.com/search/local/ws/rest/v1",
          "name": "Papa John's Pizza",
          "point": {
            "type": "Point",
            "coordinates": [39.231285095214844, -84.16510772705078]
          },
          "Address": {
            "addressLine": "6725-C Dick Flynn Blvd., Ste C",
            "adminDistrict": "OH",
            "countryRegion": "US",
            "formattedAddress": "6725-C Dick Flynn Blvd., Ste C, Goshen, OH, 45122",
            "locality": "Goshen",
            "postalCode": "45122"
          },
          "PhoneNumber": "(513) 722-3111",
          "Website": "https://locations.papajohns.com/united-states/oh/45122/goshen/6725-dick-flynn-blvd?utm_source=yext-listings&utm_medium=referral&y_source=1_MTA2OTE5OTctNDgzLWxvY2F0aW9uLndlYnNpdGU%3D",
          "entityType": "Restaurant",
          "geocodePoints": [
            {
              "type": "Point",
              "coordinates": [39.231285095214844, -84.16510772705078],
              "calculationMethod": "Rooftop",
              "usageTypes": ["Display"]
            }
          ]
        }
      ]
    }
  ],
  "statusCode": 200,
  "statusDescription": "OK",
  "traceId": "2259d6bde965412695dc9b34d3630e4a|BN0000501E|0.0.0.0"
}
